{
  "generated_at": "2026-07-24T02:00:28.008Z",
  "sources": [
    "msc-geomet-swob-realtime",
    "noaa-ndbc"
  ],
  "station_count": 34,
  "stations": [
    {
      "id": "swob:1108291",
      "source": "swob",
      "name": "TSAWWASSEN FERRY AUTO",
      "lat": 49.0039,
      "lon": -123.1333,
      "elevation_m": 8.3,
      "obs_time": "2026-07-24T01:59:00.000Z",
      "wind_dir_deg": 148,
      "wind_speed_kmh": 0,
      "wind_gust_kmh": 0,
      "wind_speed_kn": 0,
      "wind_gust_kn": 0,
      "stale": false,
      "quality": "ok"
    },
    {
      "id": "swob:1018598",
      "source": "swob",
      "name": "VICTORIA UNIVERSITY CS",
      "lat": 48.45692,
      "lon": -123.304635,
      "elevation_m": 61.1,
      "obs_time": "2026-07-24T01:59:00.000Z",
      "wind_dir_deg": 236,
      "wind_speed_kmh": 7,
      "wind_gust_kmh": 19,
      "wind_speed_kn": 3.8,
      "wind_gust_kn": 10.3,
      "stale": false,
      "quality": "ok"
    },
    {
      "id": "swob:1086081",
      "source": "swob",
      "name": "PEMBERTON AIRPORT (WINDS)",
      "lat": 50.30251,
      "lon": -122.742199,
      "elevation_m": 205,
      "obs_time": "2026-07-24T01:59:00.000Z",
      "wind_dir_deg": 283,
      "wind_speed_kmh": 26,
      "wind_gust_kmh": 40,
      "wind_speed_kn": 14,
      "wind_gust_kn": 21.5,
      "stale": false,
      "quality": "ok"
    },
    {
      "id": "swob:1015630",
      "source": "swob",
      "name": "NORTH COWICHAN",
      "lat": 48.824209,
      "lon": -123.718917,
      "elevation_m": 46.8,
      "obs_time": "2026-07-24T01:59:00.000Z",
      "wind_dir_deg": 35,
      "wind_speed_kmh": 3,
      "wind_gust_kmh": 6,
      "wind_speed_kn": 1.7,
      "wind_gust_kn": 3.5,
      "stale": false,
      "quality": "ok"
    },
    {
      "id": "swob:1102415",
      "source": "swob",
      "name": "DELTA BURNS BOG",
      "lat": 49.125992,
      "lon": -123.002436,
      "elevation_m": 4.6,
      "obs_time": "2026-07-24T01:59:00.000Z",
      "wind_dir_deg": 118,
      "wind_speed_kmh": 1,
      "wind_gust_kmh": 3,
      "wind_speed_kn": 0.5,
      "wind_gust_kn": 1.7,
      "stale": false,
      "quality": "ok"
    },
    {
      "id": "swob:1086558",
      "source": "swob",
      "name": "PUNTZI MOUNTAIN AIRPORT (AUT)",
      "lat": 52.108869,
      "lon": -124.152797,
      "elevation_m": 912.59,
      "obs_time": "2026-07-24T01:59:00.000Z",
      "wind_dir_deg": 276,
      "wind_speed_kmh": 25,
      "wind_gust_kmh": 37,
      "wind_speed_kn": 13.4,
      "wind_gust_kn": 19.8,
      "stale": false,
      "quality": "ok"
    },
    {
      "id": "swob:1077501",
      "source": "swob",
      "name": "SMITHERS AIRPORT AUTO",
      "lat": 54.824275,
      "lon": -127.189264,
      "elevation_m": 520.197,
      "obs_time": "2026-07-24T01:59:00.000Z",
      "wind_dir_deg": 323,
      "wind_speed_kmh": 15,
      "wind_gust_kmh": 26,
      "wind_speed_kn": 8,
      "wind_gust_kn": 13.8,
      "stale": false,
      "quality": "ok"
    },
    {
      "id": "swob:1091174",
      "source": "swob",
      "name": "BURNS LAKE DECKER LAKE",
      "lat": 54.383092,
      "lon": -125.95879,
      "elevation_m": 715.191,
      "obs_time": "2026-07-24T01:59:00.000Z",
      "wind_dir_deg": 280,
      "wind_speed_kmh": 19,
      "wind_gust_kmh": 30,
      "wind_speed_kn": 10.3,
      "wind_gust_kn": 16.3,
      "stale": false,
      "quality": "ok"
    },
    {
      "id": "swob:1026562",
      "source": "swob",
      "name": "QUALICUM BEACH AIRPORT",
      "lat": 49.337222,
      "lon": -124.393889,
      "elevation_m": 60.2,
      "obs_time": "2026-07-24T01:59:00.000Z",
      "wind_dir_deg": 100,
      "wind_speed_kmh": 9,
      "wind_gust_kmh": 15,
      "wind_speed_kn": 4.9,
      "wind_gust_kn": 8.2,
      "stale": false,
      "quality": "ok"
    },
    {
      "id": "swob:1106200",
      "source": "swob",
      "name": "POINT ATKINSON",
      "lat": 49.330352,
      "lon": -123.264704,
      "elevation_m": 15,
      "obs_time": "2026-07-24T01:59:00.000Z",
      "wind_dir_deg": 99,
      "wind_speed_kmh": 28,
      "wind_gust_kmh": 31,
      "wind_speed_kn": 15,
      "wind_gust_kn": 16.6,
      "stale": false,
      "quality": "ok"
    },
    {
      "id": "swob:1018611",
      "source": "swob",
      "name": "VICTORIA GONZALES CS",
      "lat": 48.413302,
      "lon": -123.324775,
      "elevation_m": 65.339,
      "obs_time": "2026-07-24T01:59:00.000Z",
      "wind_dir_deg": 232,
      "wind_speed_kmh": 20,
      "wind_gust_kmh": 28,
      "wind_speed_kn": 10.6,
      "wind_gust_kn": 15,
      "stale": false,
      "quality": "ok"
    },
    {
      "id": "swob:1057051",
      "source": "swob",
      "name": "SANDSPIT AIRPORT AUTO",
      "lat": 53.249444,
      "lon": -131.813138,
      "elevation_m": 10.9,
      "obs_time": "2026-07-24T01:59:00.000Z",
      "wind_dir_deg": 355,
      "wind_speed_kmh": 21,
      "wind_gust_kmh": 29,
      "wind_speed_kn": 11.6,
      "wind_gust_kn": 15.9,
      "stale": false,
      "quality": "ok"
    },
    {
      "id": "swob:1108910",
      "source": "swob",
      "name": "WHITE ROCK",
      "lat": 49.0181,
      "lon": -122.7839,
      "elevation_m": 13,
      "obs_time": "2026-07-24T01:59:00.000Z",
      "wind_dir_deg": 137,
      "wind_speed_kmh": 7,
      "wind_gust_kmh": 15,
      "wind_speed_kn": 3.6,
      "wind_gust_kn": 8.3,
      "stale": false,
      "quality": "ok"
    },
    {
      "id": "swob:1096453",
      "source": "swob",
      "name": "PRINCE GEORGE AIRPORT AUTO",
      "lat": 53.888996,
      "lon": -122.67208,
      "elevation_m": 680.44,
      "obs_time": "2026-07-24T01:59:00.000Z",
      "wind_dir_deg": 181,
      "wind_speed_kmh": 12,
      "wind_gust_kmh": 17,
      "wind_speed_kn": 6.6,
      "wind_gust_kn": 9.1,
      "stale": false,
      "quality": "ok"
    },
    {
      "id": "swob:1096454",
      "source": "swob",
      "name": "PRINCE GEORGE MASSEY AUTO",
      "lat": 53.90001,
      "lon": -122.790803,
      "elevation_m": 602.163,
      "obs_time": "2026-07-24T01:59:00.000Z",
      "wind_dir_deg": 177,
      "wind_speed_kmh": 7,
      "wind_gust_kmh": 11,
      "wind_speed_kn": 3.6,
      "wind_gust_kn": 6.2,
      "stale": false,
      "quality": "ok"
    },
    {
      "id": "swob:1064324",
      "source": "swob",
      "name": "KITIMAT FOREST AVE",
      "lat": 54.056434,
      "lon": -128.604077,
      "elevation_m": 106.354,
      "obs_time": "2026-07-24T01:59:00.000Z",
      "wind_dir_deg": 216,
      "wind_speed_kmh": 14,
      "wind_gust_kmh": 29,
      "wind_speed_kn": 7.3,
      "wind_gust_kn": 15.9,
      "stale": false,
      "quality": "ok"
    },
    {
      "id": "swob:1106178",
      "source": "swob",
      "name": "PITT MEADOWS CS",
      "lat": 49.208307,
      "lon": -122.690076,
      "elevation_m": 6.3,
      "obs_time": "2026-07-24T01:59:00.000Z",
      "wind_dir_deg": 261,
      "wind_speed_kmh": 2,
      "wind_gust_kmh": 7,
      "wind_speed_kn": 1.1,
      "wind_gust_kn": 3.5,
      "stale": false,
      "quality": "ok"
    },
    {
      "id": "swob:10476F0",
      "source": "swob",
      "name": "SQUAMISH AIRPORT",
      "lat": 49.78319,
      "lon": -123.161232,
      "elevation_m": 56.6,
      "obs_time": "2026-07-24T01:59:00.000Z",
      "wind_dir_deg": 151,
      "wind_speed_kmh": 12,
      "wind_gust_kmh": 23,
      "wind_speed_kn": 6.6,
      "wind_gust_kn": 12.3,
      "stale": false,
      "quality": "ok"
    },
    {
      "id": "swob:1016943",
      "source": "swob",
      "name": "SAANICHTON CFIA",
      "lat": 48.621733,
      "lon": -123.410233,
      "elevation_m": 25.5,
      "obs_time": "2026-07-24T01:59:00.000Z",
      "wind_dir_deg": 230,
      "wind_speed_kmh": 7,
      "wind_gust_kmh": 11,
      "wind_speed_kn": 3.6,
      "wind_gust_kn": 5.8,
      "stale": false,
      "quality": "ok"
    },
    {
      "id": "swob:1036B06",
      "source": "swob",
      "name": "PORT ALBERNI AIRPORT (AUT)",
      "lat": 49.316698,
      "lon": -124.926912,
      "elevation_m": 78.3,
      "obs_time": "2026-07-24T01:59:00.000Z",
      "wind_dir_deg": 131,
      "wind_speed_kmh": 8,
      "wind_gust_kmh": 11,
      "wind_speed_kn": 4.1,
      "wind_gust_kn": 6,
      "stale": false,
      "quality": "ok"
    },
    {
      "id": "swob:1016640",
      "source": "swob",
      "name": "RACE ROCKS",
      "lat": 48.297992,
      "lon": -123.531394,
      "elevation_m": 32.9,
      "obs_time": "2026-07-24T01:59:00.000Z",
      "wind_dir_deg": 273,
      "wind_speed_kmh": 42,
      "wind_gust_kmh": 46,
      "wind_speed_kn": 22.8,
      "wind_gust_kn": 24.9,
      "stale": false,
      "quality": "ok"
    },
    {
      "id": "swob:1047172",
      "source": "swob",
      "name": "SECHELT AUT",
      "lat": 49.457998,
      "lon": -123.715224,
      "elevation_m": 87.151,
      "obs_time": "2026-07-24T01:59:00.000Z",
      "wind_dir_deg": 129,
      "wind_speed_kmh": 14,
      "wind_gust_kmh": 24,
      "wind_speed_kn": 7.7,
      "wind_gust_kn": 12.9,
      "stale": false,
      "quality": "ok"
    },
    {
      "id": "swob:1096631",
      "source": "swob",
      "name": "QUESNEL AIRPORT AUTO",
      "lat": 53.026929,
      "lon": -122.506271,
      "elevation_m": 544.397,
      "obs_time": "2026-07-24T01:59:00.000Z",
      "wind_dir_deg": 343,
      "wind_speed_kmh": 9,
      "wind_gust_kmh": 13,
      "wind_speed_kn": 4.8,
      "wind_gust_kn": 6.8,
      "stale": false,
      "quality": "ok"
    },
    {
      "id": "swob:1060844",
      "source": "swob",
      "name": "BELLA COOLA AIRPORT",
      "lat": 52.388507,
      "lon": -126.586783,
      "elevation_m": 38.2,
      "obs_time": "2026-07-24T01:59:00.000Z",
      "wind_dir_deg": 235,
      "wind_speed_kmh": 31,
      "wind_gust_kmh": 43,
      "wind_speed_kn": 16.5,
      "wind_gust_kn": 23.2,
      "stale": false,
      "quality": "ok"
    },
    {
      "id": "swob:1108824",
      "source": "swob",
      "name": "WEST VANCOUVER AUT",
      "lat": 49.347059,
      "lon": -123.193392,
      "elevation_m": 170.885,
      "obs_time": "2026-07-24T01:58:00.000Z",
      "wind_dir_deg": 84,
      "wind_speed_kmh": 3,
      "wind_gust_kmh": 10,
      "wind_speed_kn": 1.8,
      "wind_gust_kn": 5.4,
      "stale": false,
      "quality": "ok"
    },
    {
      "id": "swob:1108395",
      "source": "swob",
      "name": "Vancouver International",
      "lat": 49.1947,
      "lon": -123.184,
      "elevation_m": 4,
      "obs_time": "2026-07-24T01:53:00.000Z",
      "wind_dir_deg": 81,
      "wind_speed_kmh": 17,
      "wind_gust_kmh": null,
      "wind_speed_kn": 9,
      "wind_gust_kn": null,
      "stale": false,
      "quality": "ok"
    },
    {
      "id": "swob:1012710",
      "source": "swob",
      "name": "ESQUIMALT HARBOUR",
      "lat": 48.431972,
      "lon": -123.439333,
      "elevation_m": 4.7,
      "obs_time": "2026-07-24T01:45:00.000Z",
      "wind_dir_deg": 316,
      "wind_speed_kmh": 5,
      "wind_gust_kmh": 11,
      "wind_speed_kn": 2.8,
      "wind_gust_kn": 5.9,
      "stale": false,
      "quality": "ok"
    },
    {
      "id": "swob:1066482",
      "source": "swob",
      "name": "Prince Rupert",
      "lat": 54.2859,
      "lon": -130.445,
      "elevation_m": 35.4,
      "obs_time": "2026-07-24T01:44:00.000Z",
      "wind_dir_deg": 255,
      "wind_speed_kmh": 15,
      "wind_gust_kmh": null,
      "wind_speed_kn": 8,
      "wind_gust_kn": null,
      "stale": false,
      "quality": "ok"
    },
    {
      "id": "ndbc:46146",
      "source": "ndbc",
      "name": "Halibut Bank",
      "lat": 49.34,
      "lon": -123.73,
      "elevation_m": 0,
      "obs_time": "2026-07-24T01:00:00Z",
      "wind_dir_deg": 130,
      "wind_speed_kmh": 25,
      "wind_gust_kmh": 29,
      "wind_speed_kn": 13.6,
      "wind_gust_kn": 15.6,
      "stale": true,
      "quality": "ok"
    },
    {
      "id": "ndbc:46131",
      "source": "ndbc",
      "name": "Sentry Shoal",
      "lat": 49.91,
      "lon": -125,
      "elevation_m": 0,
      "obs_time": "2026-07-24T01:00:00Z",
      "wind_dir_deg": 160,
      "wind_speed_kmh": 22,
      "wind_gust_kmh": 25,
      "wind_speed_kn": 11.7,
      "wind_gust_kn": 13.6,
      "stale": true,
      "quality": "ok"
    },
    {
      "id": "ndbc:46206",
      "source": "ndbc",
      "name": "La Perouse Bank",
      "lat": 48.84,
      "lon": -125.99,
      "elevation_m": 0,
      "obs_time": "2026-07-24T01:00:00Z",
      "wind_dir_deg": 170,
      "wind_speed_kmh": 18,
      "wind_gust_kmh": 22,
      "wind_speed_kn": 9.7,
      "wind_gust_kn": 11.7,
      "stale": true,
      "quality": "ok"
    },
    {
      "id": "ndbc:46132",
      "source": "ndbc",
      "name": "South Brooks",
      "lat": 49.74,
      "lon": -127.93,
      "elevation_m": 0,
      "obs_time": "2026-07-24T01:00:00Z",
      "wind_dir_deg": 140,
      "wind_speed_kmh": 11,
      "wind_gust_kmh": 14,
      "wind_speed_kn": 5.8,
      "wind_gust_kn": 7.8,
      "stale": true,
      "quality": "ok"
    },
    {
      "id": "ndbc:46204",
      "source": "ndbc",
      "name": "West Sea Otter",
      "lat": 51.38,
      "lon": -128.77,
      "elevation_m": 0,
      "obs_time": "2026-07-24T01:00:00Z",
      "wind_dir_deg": 250,
      "wind_speed_kmh": 18,
      "wind_gust_kmh": 25,
      "wind_speed_kn": 9.7,
      "wind_gust_kn": 13.6,
      "stale": true,
      "quality": "ok"
    },
    {
      "id": "ndbc:46181",
      "source": "ndbc",
      "name": "Nanakwa Shoal",
      "lat": 53.82,
      "lon": -128.83,
      "elevation_m": 0,
      "obs_time": "2026-07-24T01:00:00Z",
      "wind_dir_deg": 190,
      "wind_speed_kmh": 36,
      "wind_gust_kmh": 43,
      "wind_speed_kn": 19.4,
      "wind_gust_kn": 23.3,
      "stale": true,
      "quality": "ok"
    }
  ]
}