{
  "generated_at": "2026-07-16T13:01:23.568Z",
  "sources": [
    "msc-geomet-swob-realtime",
    "noaa-ndbc"
  ],
  "station_count": 6,
  "stations": [
    {
      "id": "ndbc:46146",
      "source": "ndbc",
      "name": "Halibut Bank",
      "lat": 49.34,
      "lon": -123.73,
      "elevation_m": 0,
      "obs_time": "2026-07-16T12:00:00Z",
      "wind_dir_deg": 270,
      "wind_speed_kmh": 22,
      "wind_gust_kmh": 29,
      "wind_speed_kn": 11.7,
      "wind_gust_kn": 15.6,
      "stale": true,
      "quality": "ok"
    },
    {
      "id": "ndbc:46131",
      "source": "ndbc",
      "name": "Sentry Shoal",
      "lat": 49.91,
      "lon": -125,
      "elevation_m": 0,
      "obs_time": "2026-07-16T12:00:00Z",
      "wind_dir_deg": 330,
      "wind_speed_kmh": 25,
      "wind_gust_kmh": 32,
      "wind_speed_kn": 13.6,
      "wind_gust_kn": 17.5,
      "stale": true,
      "quality": "ok"
    },
    {
      "id": "ndbc:46206",
      "source": "ndbc",
      "name": "La Perouse Bank",
      "lat": 48.84,
      "lon": -125.99,
      "elevation_m": 0,
      "obs_time": "2026-07-16T12:00:00Z",
      "wind_dir_deg": 280,
      "wind_speed_kmh": 7,
      "wind_gust_kmh": 11,
      "wind_speed_kn": 3.9,
      "wind_gust_kn": 5.8,
      "stale": true,
      "quality": "ok"
    },
    {
      "id": "ndbc:46132",
      "source": "ndbc",
      "name": "South Brooks",
      "lat": 49.74,
      "lon": -127.93,
      "elevation_m": 0,
      "obs_time": "2026-07-16T12:00:00Z",
      "wind_dir_deg": 330,
      "wind_speed_kmh": 36,
      "wind_gust_kmh": 43,
      "wind_speed_kn": 19.4,
      "wind_gust_kn": 23.3,
      "stale": true,
      "quality": "ok"
    },
    {
      "id": "ndbc:46204",
      "source": "ndbc",
      "name": "West Sea Otter",
      "lat": 51.38,
      "lon": -128.77,
      "elevation_m": 0,
      "obs_time": "2026-07-16T12:00:00Z",
      "wind_dir_deg": 320,
      "wind_speed_kmh": 22,
      "wind_gust_kmh": 25,
      "wind_speed_kn": 11.7,
      "wind_gust_kn": 13.6,
      "stale": true,
      "quality": "ok"
    },
    {
      "id": "ndbc:46181",
      "source": "ndbc",
      "name": "Nanakwa Shoal",
      "lat": 53.82,
      "lon": -128.83,
      "elevation_m": 0,
      "obs_time": "2026-07-16T12:00:00Z",
      "wind_dir_deg": 330,
      "wind_speed_kmh": 4,
      "wind_gust_kmh": 4,
      "wind_speed_kn": 1.9,
      "wind_gust_kn": 1.9,
      "stale": true,
      "quality": "ok"
    }
  ]
}