{
  "generated_at": "2026-07-23T03:15:25.316Z",
  "sources": [
    "msc-geomet-swob-realtime",
    "noaa-ndbc"
  ],
  "station_count": 84,
  "stations": [
    {
      "id": "swob:1026562",
      "source": "swob",
      "name": "QUALICUM BEACH AIRPORT",
      "lat": 49.337222,
      "lon": -124.393889,
      "elevation_m": 60.2,
      "obs_time": "2026-07-23T03:14:00.000Z",
      "wind_dir_deg": 283,
      "wind_speed_kmh": 3,
      "wind_gust_kmh": 5,
      "wind_speed_kn": 1.8,
      "wind_gust_kn": 2.7,
      "stale": false,
      "quality": "ok"
    },
    {
      "id": "swob:1047172",
      "source": "swob",
      "name": "SECHELT AUT",
      "lat": 49.457998,
      "lon": -123.715224,
      "elevation_m": 87.151,
      "obs_time": "2026-07-23T03:14:00.000Z",
      "wind_dir_deg": 83,
      "wind_speed_kmh": 1,
      "wind_gust_kmh": 2,
      "wind_speed_kn": 0.3,
      "wind_gust_kn": 0.9,
      "stale": false,
      "quality": "ok"
    },
    {
      "id": "swob:1018598",
      "source": "swob",
      "name": "VICTORIA UNIVERSITY CS",
      "lat": 48.45692,
      "lon": -123.304635,
      "elevation_m": 61.1,
      "obs_time": "2026-07-23T03:14:00.000Z",
      "wind_dir_deg": 213,
      "wind_speed_kmh": 3,
      "wind_gust_kmh": 7,
      "wind_speed_kn": 1.6,
      "wind_gust_kn": 4,
      "stale": false,
      "quality": "ok"
    },
    {
      "id": "swob:1096631",
      "source": "swob",
      "name": "QUESNEL AIRPORT AUTO",
      "lat": 53.026929,
      "lon": -122.506271,
      "elevation_m": 544.397,
      "obs_time": "2026-07-23T03:14:00.000Z",
      "wind_dir_deg": 57,
      "wind_speed_kmh": 2,
      "wind_gust_kmh": 3,
      "wind_speed_kn": 1,
      "wind_gust_kn": 1.8,
      "stale": false,
      "quality": "ok"
    },
    {
      "id": "swob:1018611",
      "source": "swob",
      "name": "VICTORIA GONZALES CS",
      "lat": 48.413302,
      "lon": -123.324775,
      "elevation_m": 65.339,
      "obs_time": "2026-07-23T03:14:00.000Z",
      "wind_dir_deg": 256,
      "wind_speed_kmh": 13,
      "wind_gust_kmh": 17,
      "wind_speed_kn": 7.1,
      "wind_gust_kn": 9.4,
      "stale": false,
      "quality": "ok"
    },
    {
      "id": "swob:1086081",
      "source": "swob",
      "name": "PEMBERTON AIRPORT (WINDS)",
      "lat": 50.30251,
      "lon": -122.742199,
      "elevation_m": 205,
      "obs_time": "2026-07-23T03:14:00.000Z",
      "wind_dir_deg": 103,
      "wind_speed_kmh": 7,
      "wind_gust_kmh": 10,
      "wind_speed_kn": 3.6,
      "wind_gust_kn": 5.3,
      "stale": false,
      "quality": "ok"
    },
    {
      "id": "swob:1108291",
      "source": "swob",
      "name": "TSAWWASSEN FERRY AUTO",
      "lat": 49.0039,
      "lon": -123.1333,
      "elevation_m": 8.3,
      "obs_time": "2026-07-23T03:14:00.000Z",
      "wind_dir_deg": 6,
      "wind_speed_kmh": 0,
      "wind_gust_kmh": 0,
      "wind_speed_kn": 0,
      "wind_gust_kn": 0,
      "stale": false,
      "quality": "ok"
    },
    {
      "id": "swob:1015630",
      "source": "swob",
      "name": "NORTH COWICHAN",
      "lat": 48.824209,
      "lon": -123.718917,
      "elevation_m": 46.8,
      "obs_time": "2026-07-23T03:14:00.000Z",
      "wind_dir_deg": 185,
      "wind_speed_kmh": 2,
      "wind_gust_kmh": 6,
      "wind_speed_kn": 1.2,
      "wind_gust_kn": 3.2,
      "stale": false,
      "quality": "ok"
    },
    {
      "id": "swob:1108824",
      "source": "swob",
      "name": "WEST VANCOUVER AUT",
      "lat": 49.347059,
      "lon": -123.193392,
      "elevation_m": 170.885,
      "obs_time": "2026-07-23T03:14:00.000Z",
      "wind_dir_deg": 235,
      "wind_speed_kmh": 0,
      "wind_gust_kmh": 1,
      "wind_speed_kn": 0.1,
      "wind_gust_kn": 0.4,
      "stale": false,
      "quality": "ok"
    },
    {
      "id": "swob:1091174",
      "source": "swob",
      "name": "BURNS LAKE DECKER LAKE",
      "lat": 54.383092,
      "lon": -125.95879,
      "elevation_m": 715.191,
      "obs_time": "2026-07-23T03:14:00.000Z",
      "wind_dir_deg": 300,
      "wind_speed_kmh": 13,
      "wind_gust_kmh": 24,
      "wind_speed_kn": 7,
      "wind_gust_kn": 13.1,
      "stale": false,
      "quality": "ok"
    },
    {
      "id": "swob:1077501",
      "source": "swob",
      "name": "SMITHERS AIRPORT AUTO",
      "lat": 54.824275,
      "lon": -127.189264,
      "elevation_m": 520.197,
      "obs_time": "2026-07-23T03:14:00.000Z",
      "wind_dir_deg": 313,
      "wind_speed_kmh": 11,
      "wind_gust_kmh": 20,
      "wind_speed_kn": 6,
      "wind_gust_kn": 10.9,
      "stale": false,
      "quality": "ok"
    },
    {
      "id": "swob:1036B06",
      "source": "swob",
      "name": "PORT ALBERNI AIRPORT (AUT)",
      "lat": 49.316698,
      "lon": -124.926912,
      "elevation_m": 78.3,
      "obs_time": "2026-07-23T03:14:00.000Z",
      "wind_dir_deg": 112,
      "wind_speed_kmh": 16,
      "wind_gust_kmh": 27,
      "wind_speed_kn": 8.4,
      "wind_gust_kn": 14.4,
      "stale": false,
      "quality": "ok"
    },
    {
      "id": "swob:1096453",
      "source": "swob",
      "name": "PRINCE GEORGE AIRPORT AUTO",
      "lat": 53.888996,
      "lon": -122.67208,
      "elevation_m": 680.44,
      "obs_time": "2026-07-23T03:14:00.000Z",
      "wind_dir_deg": 210,
      "wind_speed_kmh": 9,
      "wind_gust_kmh": 12,
      "wind_speed_kn": 4.9,
      "wind_gust_kn": 6.3,
      "stale": false,
      "quality": "ok"
    },
    {
      "id": "swob:1016943",
      "source": "swob",
      "name": "SAANICHTON CFIA",
      "lat": 48.621733,
      "lon": -123.410233,
      "elevation_m": 25.5,
      "obs_time": "2026-07-23T03:14:00.000Z",
      "wind_dir_deg": 170,
      "wind_speed_kmh": 2,
      "wind_gust_kmh": 4,
      "wind_speed_kn": 1.1,
      "wind_gust_kn": 2.2,
      "stale": false,
      "quality": "ok"
    },
    {
      "id": "swob:1057051",
      "source": "swob",
      "name": "SANDSPIT AIRPORT AUTO",
      "lat": 53.249444,
      "lon": -131.813138,
      "elevation_m": 10.9,
      "obs_time": "2026-07-23T03:14:00.000Z",
      "wind_dir_deg": 350,
      "wind_speed_kmh": 20,
      "wind_gust_kmh": 29,
      "wind_speed_kn": 10.7,
      "wind_gust_kn": 15.6,
      "stale": false,
      "quality": "ok"
    },
    {
      "id": "swob:1102415",
      "source": "swob",
      "name": "DELTA BURNS BOG",
      "lat": 49.125992,
      "lon": -123.002436,
      "elevation_m": 4.6,
      "obs_time": "2026-07-23T03:14:00.000Z",
      "wind_dir_deg": 268,
      "wind_speed_kmh": 1,
      "wind_gust_kmh": 4,
      "wind_speed_kn": 0.4,
      "wind_gust_kn": 2.1,
      "stale": false,
      "quality": "ok"
    },
    {
      "id": "swob:1016640",
      "source": "swob",
      "name": "RACE ROCKS",
      "lat": 48.297992,
      "lon": -123.531394,
      "elevation_m": 32.9,
      "obs_time": "2026-07-23T03:14:00.000Z",
      "wind_dir_deg": 273,
      "wind_speed_kmh": 36,
      "wind_gust_kmh": 38,
      "wind_speed_kn": 19.4,
      "wind_gust_kn": 20.6,
      "stale": false,
      "quality": "ok"
    },
    {
      "id": "swob:1064324",
      "source": "swob",
      "name": "KITIMAT FOREST AVE",
      "lat": 54.056434,
      "lon": -128.604077,
      "elevation_m": 106.354,
      "obs_time": "2026-07-23T03:14:00.000Z",
      "wind_dir_deg": 197,
      "wind_speed_kmh": 7,
      "wind_gust_kmh": 18,
      "wind_speed_kn": 3.9,
      "wind_gust_kn": 9.7,
      "stale": false,
      "quality": "ok"
    },
    {
      "id": "swob:1096454",
      "source": "swob",
      "name": "PRINCE GEORGE MASSEY AUTO",
      "lat": 53.90001,
      "lon": -122.790803,
      "elevation_m": 602.163,
      "obs_time": "2026-07-23T03:14:00.000Z",
      "wind_dir_deg": 255,
      "wind_speed_kmh": 2,
      "wind_gust_kmh": 4,
      "wind_speed_kn": 1.3,
      "wind_gust_kn": 2,
      "stale": false,
      "quality": "ok"
    },
    {
      "id": "swob:1106178",
      "source": "swob",
      "name": "PITT MEADOWS CS",
      "lat": 49.208307,
      "lon": -122.690076,
      "elevation_m": 6.3,
      "obs_time": "2026-07-23T03:14:00.000Z",
      "wind_dir_deg": 197,
      "wind_speed_kmh": 4,
      "wind_gust_kmh": 5,
      "wind_speed_kn": 1.9,
      "wind_gust_kn": 2.8,
      "stale": false,
      "quality": "ok"
    },
    {
      "id": "swob:1106200",
      "source": "swob",
      "name": "POINT ATKINSON",
      "lat": 49.330352,
      "lon": -123.264704,
      "elevation_m": 15,
      "obs_time": "2026-07-23T03:14:00.000Z",
      "wind_dir_deg": 296,
      "wind_speed_kmh": 4,
      "wind_gust_kmh": 8,
      "wind_speed_kn": 2.3,
      "wind_gust_kn": 4,
      "stale": false,
      "quality": "ok"
    },
    {
      "id": "swob:1060844",
      "source": "swob",
      "name": "BELLA COOLA AIRPORT",
      "lat": 52.388507,
      "lon": -126.586783,
      "elevation_m": 38.2,
      "obs_time": "2026-07-23T03:14:00.000Z",
      "wind_dir_deg": 304,
      "wind_speed_kmh": 17,
      "wind_gust_kmh": 33,
      "wind_speed_kn": 9.1,
      "wind_gust_kn": 17.9,
      "stale": false,
      "quality": "ok"
    },
    {
      "id": "swob:1108910",
      "source": "swob",
      "name": "WHITE ROCK",
      "lat": 49.0181,
      "lon": -122.7839,
      "elevation_m": 13,
      "obs_time": "2026-07-23T03:14:00.000Z",
      "wind_dir_deg": 277,
      "wind_speed_kmh": 1,
      "wind_gust_kmh": 4,
      "wind_speed_kn": 0.4,
      "wind_gust_kn": 2,
      "stale": false,
      "quality": "ok"
    },
    {
      "id": "swob:10476F0",
      "source": "swob",
      "name": "SQUAMISH AIRPORT",
      "lat": 49.78319,
      "lon": -123.161232,
      "elevation_m": 56.6,
      "obs_time": "2026-07-23T03:13:00.000Z",
      "wind_dir_deg": 189,
      "wind_speed_kmh": 5,
      "wind_gust_kmh": 9,
      "wind_speed_kn": 2.6,
      "wind_gust_kn": 4.7,
      "stale": false,
      "quality": "ok"
    },
    {
      "id": "swob:1086558",
      "source": "swob",
      "name": "PUNTZI MOUNTAIN AIRPORT (AUT)",
      "lat": 52.108869,
      "lon": -124.152797,
      "elevation_m": 912.59,
      "obs_time": "2026-07-23T03:10:00.000Z",
      "wind_dir_deg": 291,
      "wind_speed_kmh": 15,
      "wind_gust_kmh": 25,
      "wind_speed_kn": 8.2,
      "wind_gust_kn": 13.6,
      "stale": false,
      "quality": "ok"
    },
    {
      "id": "swob:1096629",
      "source": "swob",
      "name": "Quesnel",
      "lat": 53.0261,
      "lon": -122.51,
      "elevation_m": 545,
      "obs_time": "2026-07-23T03:06:00.000Z",
      "wind_dir_deg": 14,
      "wind_speed_kmh": 5,
      "wind_gust_kmh": null,
      "wind_speed_kn": 2.9,
      "wind_gust_kn": null,
      "stale": false,
      "quality": "ok"
    },
    {
      "id": "swob:1025365",
      "source": "swob",
      "name": "Nanaimo",
      "lat": 49.0545,
      "lon": -123.87,
      "elevation_m": 28,
      "obs_time": "2026-07-23T03:00:00.000Z",
      "wind_dir_deg": 242,
      "wind_speed_kmh": 5,
      "wind_gust_kmh": null,
      "wind_speed_kn": 2.5,
      "wind_gust_kn": null,
      "stale": false,
      "quality": "ok"
    },
    {
      "id": "swob:1064728",
      "source": "swob",
      "name": "LUCY ISLAND LIGHTSTATION",
      "lat": 54.295897,
      "lon": -130.608628,
      "elevation_m": 45.6,
      "obs_time": "2026-07-23T03:00:00.000Z",
      "wind_dir_deg": 269,
      "wind_speed_kmh": 28,
      "wind_gust_kmh": 33,
      "wind_speed_kn": 15.3,
      "wind_gust_kn": 17.7,
      "stale": false,
      "quality": "ok"
    },
    {
      "id": "swob:1018633",
      "source": "swob",
      "name": "Victoria Harbour",
      "lat": 48.4228,
      "lon": -123.387,
      "elevation_m": 0,
      "obs_time": "2026-07-23T03:00:00.000Z",
      "wind_dir_deg": 237,
      "wind_speed_kmh": 4,
      "wind_gust_kmh": null,
      "wind_speed_kn": 1.9,
      "wind_gust_kn": null,
      "stale": false,
      "quality": "ok"
    },
    {
      "id": "swob:1077499",
      "source": "swob",
      "name": "Smithers",
      "lat": 54.8253,
      "lon": -127.183,
      "elevation_m": 523,
      "obs_time": "2026-07-23T03:00:00.000Z",
      "wind_dir_deg": 351,
      "wind_speed_kmh": 17,
      "wind_gust_kmh": null,
      "wind_speed_kn": 9,
      "wind_gust_kn": null,
      "stale": false,
      "quality": "ok"
    },
    {
      "id": "swob:1013998",
      "source": "swob",
      "name": "KELP REEFS",
      "lat": 48.5476,
      "lon": -123.2369,
      "elevation_m": 12.3,
      "obs_time": "2026-07-23T03:00:00.000Z",
      "wind_dir_deg": 168,
      "wind_speed_kmh": 7,
      "wind_gust_kmh": 11,
      "wind_speed_kn": 3.5,
      "wind_gust_kn": 6,
      "stale": false,
      "quality": "ok"
    },
    {
      "id": "swob:1022689",
      "source": "swob",
      "name": "ENTRANCE ISLAND",
      "lat": 49.208664,
      "lon": -123.810536,
      "elevation_m": 8.979,
      "obs_time": "2026-07-23T03:00:00.000Z",
      "wind_dir_deg": 272,
      "wind_speed_kmh": 10,
      "wind_gust_kmh": 12,
      "wind_speed_kn": 5.5,
      "wind_gust_kn": 6.3,
      "stale": false,
      "quality": "ok"
    },
    {
      "id": "swob:1100032",
      "source": "swob",
      "name": "Abbotsford",
      "lat": 49.0253,
      "lon": -122.36,
      "elevation_m": 59.1,
      "obs_time": "2026-07-23T03:00:00.000Z",
      "wind_dir_deg": 209,
      "wind_speed_kmh": 9,
      "wind_gust_kmh": null,
      "wind_speed_kn": 5.1,
      "wind_gust_kn": null,
      "stale": false,
      "quality": "ok"
    },
    {
      "id": "swob:1100909",
      "source": "swob",
      "name": "Vancouver Boundary Bay",
      "lat": 49.0733,
      "lon": -123.008,
      "elevation_m": 1.8,
      "obs_time": "2026-07-23T03:00:00.000Z",
      "wind_dir_deg": 267,
      "wind_speed_kmh": 7,
      "wind_gust_kmh": null,
      "wind_speed_kn": 3.9,
      "wind_gust_kn": null,
      "stale": false,
      "quality": "ok"
    },
    {
      "id": "swob:1054929",
      "source": "swob",
      "name": "Masset",
      "lat": 54.0271,
      "lon": -132.125,
      "elevation_m": 5.8,
      "obs_time": "2026-07-23T03:00:00.000Z",
      "wind_dir_deg": 316,
      "wind_speed_kmh": 33,
      "wind_gust_kmh": 57,
      "wind_speed_kn": 17.9,
      "wind_gust_kn": 30.9,
      "stale": false,
      "quality": "ok"
    },
    {
      "id": "swob:1104570",
      "source": "swob",
      "name": "Langley Regional",
      "lat": 49.1008,
      "lon": -122.631,
      "elevation_m": 10.4,
      "obs_time": "2026-07-23T03:00:00.000Z",
      "wind_dir_deg": 233,
      "wind_speed_kmh": 10,
      "wind_gust_kmh": null,
      "wind_speed_kn": 5.5,
      "wind_gust_kn": null,
      "stale": false,
      "quality": "ok"
    },
    {
      "id": "swob:1021270",
      "source": "swob",
      "name": "Campbell River",
      "lat": 49.952,
      "lon": -125.273,
      "elevation_m": 108.8,
      "obs_time": "2026-07-23T03:00:00.000Z",
      "wind_dir_deg": 324,
      "wind_speed_kmh": 4,
      "wind_gust_kmh": null,
      "wind_speed_kn": 1.9,
      "wind_gust_kn": null,
      "stale": false,
      "quality": "ok"
    },
    {
      "id": "swob:1060848",
      "source": "swob",
      "name": "Bella Coola",
      "lat": 52.3876,
      "lon": -126.596,
      "elevation_m": 35.6,
      "obs_time": "2026-07-23T03:00:00.000Z",
      "wind_dir_deg": 309,
      "wind_speed_kmh": 19,
      "wind_gust_kmh": 31,
      "wind_speed_kn": 10.5,
      "wind_gust_kn": 16.7,
      "stale": false,
      "quality": "ok"
    },
    {
      "id": "swob:1025369",
      "source": "swob",
      "name": "Nanaimo",
      "lat": 49.0545,
      "lon": -123.87,
      "elevation_m": 28,
      "obs_time": "2026-07-23T03:00:00.000Z",
      "wind_dir_deg": 242,
      "wind_speed_kmh": 5,
      "wind_gust_kmh": null,
      "wind_speed_kn": 2.5,
      "wind_gust_kn": null,
      "stale": false,
      "quality": "ok"
    },
    {
      "id": "swob:1027403",
      "source": "swob",
      "name": "SISTERS ISLAND",
      "lat": 49.486437,
      "lon": -124.43487,
      "elevation_m": 23.6,
      "obs_time": "2026-07-23T03:00:00.000Z",
      "wind_dir_deg": 342,
      "wind_speed_kmh": 10,
      "wind_gust_kmh": 11,
      "wind_speed_kn": 5.2,
      "wind_gust_kn": 5.9,
      "stale": false,
      "quality": "ok"
    },
    {
      "id": "swob:1018621",
      "source": "swob",
      "name": "Victoria International",
      "lat": 48.6472,
      "lon": -123.426,
      "elevation_m": 19.5,
      "obs_time": "2026-07-23T03:00:00.000Z",
      "wind_dir_deg": 93,
      "wind_speed_kmh": 5,
      "wind_gust_kmh": null,
      "wind_speed_kn": 2.9,
      "wind_gust_kn": null,
      "stale": false,
      "quality": "ok"
    },
    {
      "id": "swob:1018619",
      "source": "swob",
      "name": "Victoria Harbour",
      "lat": 48.4228,
      "lon": -123.387,
      "elevation_m": 0,
      "obs_time": "2026-07-23T03:00:00.000Z",
      "wind_dir_deg": 237,
      "wind_speed_kmh": 4,
      "wind_gust_kmh": null,
      "wind_speed_kn": 1.9,
      "wind_gust_kn": null,
      "stale": false,
      "quality": "ok"
    },
    {
      "id": "swob:1043304",
      "source": "swob",
      "name": "GRIEF POINT",
      "lat": 49.800417,
      "lon": -124.518778,
      "elevation_m": 10,
      "obs_time": "2026-07-23T03:00:00.000Z",
      "wind_dir_deg": 293,
      "wind_speed_kmh": 11,
      "wind_gust_kmh": 14,
      "wind_speed_kn": 6,
      "wind_gust_kn": 7.3,
      "stale": false,
      "quality": "ok"
    },
    {
      "id": "swob:1108380",
      "source": "swob",
      "name": "VANCOUVER SEA ISLAND CCG",
      "lat": 49.182552,
      "lon": -123.187254,
      "elevation_m": 4.118,
      "obs_time": "2026-07-23T03:00:00.000Z",
      "wind_dir_deg": 263,
      "wind_speed_kmh": 5,
      "wind_gust_kmh": 6,
      "wind_speed_kn": 2.4,
      "wind_gust_kn": 3.2,
      "stale": false,
      "quality": "ok"
    },
    {
      "id": "swob:1026273",
      "source": "swob",
      "name": "PORT HARDY AIRPORT",
      "lat": 50.684839,
      "lon": -127.380436,
      "elevation_m": 20.209,
      "obs_time": "2026-07-23T03:00:00.000Z",
      "wind_dir_deg": 30,
      "wind_speed_kmh": 3,
      "wind_gust_kmh": 7,
      "wind_speed_kn": 1.6,
      "wind_gust_kn": 3.6,
      "stale": false,
      "quality": "ok"
    },
    {
      "id": "swob:1100031",
      "source": "swob",
      "name": "Abbotsford",
      "lat": 49.0253,
      "lon": -122.36,
      "elevation_m": 59.1,
      "obs_time": "2026-07-23T03:00:00.000Z",
      "wind_dir_deg": 209,
      "wind_speed_kmh": 9,
      "wind_gust_kmh": null,
      "wind_speed_kn": 5.1,
      "wind_gust_kn": null,
      "stale": false,
      "quality": "ok"
    },
    {
      "id": "swob:1022795",
      "source": "swob",
      "name": "FANNY ISLAND",
      "lat": 50.453517,
      "lon": -125.992895,
      "elevation_m": 9.8,
      "obs_time": "2026-07-23T03:00:00.000Z",
      "wind_dir_deg": 311,
      "wind_speed_kmh": 49,
      "wind_gust_kmh": 56,
      "wind_speed_kn": 26.6,
      "wind_gust_kn": 30.3,
      "stale": false,
      "quality": "ok"
    },
    {
      "id": "swob:1020590",
      "source": "swob",
      "name": "BALLENAS ISLAND",
      "lat": 49.350581,
      "lon": -124.160523,
      "elevation_m": 14.51,
      "obs_time": "2026-07-23T03:00:00.000Z",
      "wind_dir_deg": 250,
      "wind_speed_kmh": 13,
      "wind_gust_kmh": 17,
      "wind_speed_kn": 7.1,
      "wind_gust_kn": 9.2,
      "stale": false,
      "quality": "ok"
    },
    {
      "id": "swob:1056869",
      "source": "swob",
      "name": "ROSE SPIT (AUT)",
      "lat": 54.1591,
      "lon": -131.6613,
      "elevation_m": 8.1,
      "obs_time": "2026-07-23T03:00:00.000Z",
      "wind_dir_deg": 290,
      "wind_speed_kmh": 38,
      "wind_gust_kmh": 47,
      "wind_speed_kn": 20.4,
      "wind_gust_kn": 25.5,
      "stale": false,
      "quality": "ok"
    },
    {
      "id": "swob:1101300",
      "source": "swob",
      "name": "CALLAGHAN VALLEY",
      "lat": 50.14405,
      "lon": -123.110608,
      "elevation_m": 887.4,
      "obs_time": "2026-07-23T03:00:00.000Z",
      "wind_dir_deg": 159,
      "wind_speed_kmh": 5,
      "wind_gust_kmh": 15,
      "wind_speed_kn": 2.4,
      "wind_gust_kn": 7.8,
      "stale": false,
      "quality": "ok"
    },
    {
      "id": "swob:1063303",
      "source": "swob",
      "name": "GREY ISLET (AUT)",
      "lat": 54.5803,
      "lon": -130.6978,
      "elevation_m": 10.9,
      "obs_time": "2026-07-23T03:00:00.000Z",
      "wind_dir_deg": 308,
      "wind_speed_kmh": 29,
      "wind_gust_kmh": 39,
      "wind_speed_kn": 15.8,
      "wind_gust_kn": 20.8,
      "stale": false,
      "quality": "ok"
    },
    {
      "id": "swob:1012475",
      "source": "swob",
      "name": "DISCOVERY ISLAND",
      "lat": 48.4246,
      "lon": -123.225833,
      "elevation_m": 21.1,
      "obs_time": "2026-07-23T03:00:00.000Z",
      "wind_dir_deg": 248,
      "wind_speed_kmh": 15,
      "wind_gust_kmh": 22,
      "wind_speed_kn": 8.3,
      "wind_gust_kn": 11.7,
      "stale": false,
      "quality": "ok"
    },
    {
      "id": "swob:10459NN",
      "source": "swob",
      "name": "HOWE SOUND - PAM ROCKS",
      "lat": 49.487798,
      "lon": -123.299511,
      "elevation_m": 9.071,
      "obs_time": "2026-07-23T03:00:00.000Z",
      "wind_dir_deg": 282,
      "wind_speed_kmh": 6,
      "wind_gust_kmh": 8,
      "wind_speed_kn": 3.1,
      "wind_gust_kn": 4.3,
      "stale": false,
      "quality": "ok"
    },
    {
      "id": "swob:1017099",
      "source": "swob",
      "name": "SATURNA CAPMON",
      "lat": 48.775203,
      "lon": -123.128286,
      "elevation_m": 179.5,
      "obs_time": "2026-07-23T03:00:00.000Z",
      "wind_dir_deg": 240,
      "wind_speed_kmh": 2,
      "wind_gust_kmh": 3,
      "wind_speed_kn": 1.2,
      "wind_gust_kn": 1.8,
      "stale": false,
      "quality": "ok"
    },
    {
      "id": "swob:1068134",
      "source": "swob",
      "name": "Terrace",
      "lat": 54.4685,
      "lon": -128.578,
      "elevation_m": 217.3,
      "obs_time": "2026-07-23T03:00:00.000Z",
      "wind_dir_deg": 261,
      "wind_speed_kmh": 18,
      "wind_gust_kmh": null,
      "wind_speed_kn": 9.7,
      "wind_gust_kn": null,
      "stale": false,
      "quality": "ok"
    },
    {
      "id": "swob:110Q44V",
      "source": "swob",
      "name": "Vancouver Harbour",
      "lat": 49.2869,
      "lon": -123.106,
      "elevation_m": 0,
      "obs_time": "2026-07-23T03:00:00.000Z",
      "wind_dir_deg": 311,
      "wind_speed_kmh": 11,
      "wind_gust_kmh": null,
      "wind_speed_kn": 5.8,
      "wind_gust_kn": null,
      "stale": false,
      "quality": "ok"
    },
    {
      "id": "swob:1021267",
      "source": "swob",
      "name": "Campbell River",
      "lat": 49.952,
      "lon": -125.273,
      "elevation_m": 108.8,
      "obs_time": "2026-07-23T03:00:00.000Z",
      "wind_dir_deg": 324,
      "wind_speed_kmh": 4,
      "wind_gust_kmh": null,
      "wind_speed_kn": 1.9,
      "wind_gust_kn": null,
      "stale": false,
      "quality": "ok"
    },
    {
      "id": "swob:1046332",
      "source": "swob",
      "name": "PORT MELLON",
      "lat": 49.5263,
      "lon": -123.496211,
      "elevation_m": 130.8,
      "obs_time": "2026-07-23T03:00:00.000Z",
      "wind_dir_deg": 317,
      "wind_speed_kmh": 2,
      "wind_gust_kmh": 4,
      "wind_speed_kn": 0.8,
      "wind_gust_kn": 2.1,
      "stale": false,
      "quality": "ok"
    },
    {
      "id": "swob:1107010",
      "source": "swob",
      "name": "SANDHEADS CS",
      "lat": 49.105909,
      "lon": -123.303374,
      "elevation_m": 13,
      "obs_time": "2026-07-23T03:00:00.000Z",
      "wind_dir_deg": 323,
      "wind_speed_kmh": 3,
      "wind_gust_kmh": 4,
      "wind_speed_kn": 1.7,
      "wind_gust_kn": 2.3,
      "stale": false,
      "quality": "ok"
    },
    {
      "id": "swob:1046396",
      "source": "swob",
      "name": "Powell River",
      "lat": 49.8341,
      "lon": -124.5,
      "elevation_m": 126.4,
      "obs_time": "2026-07-23T03:00:00.000Z",
      "wind_dir_deg": 259,
      "wind_speed_kmh": 8,
      "wind_gust_kmh": null,
      "wind_speed_kn": 4.1,
      "wind_gust_kn": null,
      "stale": false,
      "quality": "ok"
    },
    {
      "id": "swob:1026271",
      "source": "swob",
      "name": "Port Hardy",
      "lat": 50.6806,
      "lon": -127.367,
      "elevation_m": 21.6,
      "obs_time": "2026-07-23T03:00:00.000Z",
      "wind_dir_deg": 27,
      "wind_speed_kmh": 8,
      "wind_gust_kmh": null,
      "wind_speed_kn": 4.5,
      "wind_gust_kn": null,
      "stale": false,
      "quality": "ok"
    },
    {
      "id": "swob:110617P",
      "source": "swob",
      "name": "Pitt Meadows",
      "lat": 49.2161,
      "lon": -122.713,
      "elevation_m": 3.7,
      "obs_time": "2026-07-23T03:00:00.000Z",
      "wind_dir_deg": 237,
      "wind_speed_kmh": 8,
      "wind_gust_kmh": null,
      "wind_speed_kn": 4.1,
      "wind_gust_kn": null,
      "stale": false,
      "quality": "ok"
    },
    {
      "id": "swob:1092977",
      "source": "swob",
      "name": "FORT ST JAMES GOLF CLUB",
      "lat": 54.459673,
      "lon": -124.292078,
      "elevation_m": 707.831,
      "obs_time": "2026-07-23T03:00:00.000Z",
      "wind_dir_deg": 235,
      "wind_speed_kmh": 3,
      "wind_gust_kmh": 7,
      "wind_speed_kn": 1.5,
      "wind_gust_kn": 3.6,
      "stale": false,
      "quality": "ok"
    },
    {
      "id": "swob:1032731",
      "source": "swob",
      "name": "ESTEVAN POINT CS",
      "lat": 49.3832,
      "lon": -126.5447,
      "elevation_m": 8,
      "obs_time": "2026-07-23T03:00:00.000Z",
      "wind_dir_deg": 4,
      "wind_speed_kmh": 17,
      "wind_gust_kmh": 19,
      "wind_speed_kn": 9.4,
      "wind_gust_kn": 10,
      "stale": false,
      "quality": "ok"
    },
    {
      "id": "swob:1038210",
      "source": "swob",
      "name": "Tofino",
      "lat": 49.0821,
      "lon": -125.772,
      "elevation_m": 24.4,
      "obs_time": "2026-07-23T03:00:00.000Z",
      "wind_dir_deg": 303,
      "wind_speed_kmh": 10,
      "wind_gust_kmh": null,
      "wind_speed_kn": 5.2,
      "wind_gust_kn": null,
      "stale": false,
      "quality": "ok"
    },
    {
      "id": "swob:1108395",
      "source": "swob",
      "name": "Vancouver International",
      "lat": 49.1947,
      "lon": -123.184,
      "elevation_m": 4,
      "obs_time": "2026-07-23T03:00:00.000Z",
      "wind_dir_deg": 288,
      "wind_speed_kmh": 9,
      "wind_gust_kmh": null,
      "wind_speed_kn": 5.1,
      "wind_gust_kn": null,
      "stale": false,
      "quality": "ok"
    },
    {
      "id": "swob:1057052",
      "source": "swob",
      "name": "Sandspit",
      "lat": 53.2543,
      "lon": -131.814,
      "elevation_m": 6.4,
      "obs_time": "2026-07-23T03:00:00.000Z",
      "wind_dir_deg": 354,
      "wind_speed_kmh": 30,
      "wind_gust_kmh": 37,
      "wind_speed_kn": 15.9,
      "wind_gust_kn": 20,
      "stale": false,
      "quality": "ok"
    },
    {
      "id": "swob:1063461",
      "source": "swob",
      "name": "HERBERT ISLAND (AUT)",
      "lat": 50.9399,
      "lon": -127.6322,
      "elevation_m": 14.9,
      "obs_time": "2026-07-23T03:00:00.000Z",
      "wind_dir_deg": 274,
      "wind_speed_kmh": 30,
      "wind_gust_kmh": 36,
      "wind_speed_kn": 16.4,
      "wind_gust_kn": 19.2,
      "stale": false,
      "quality": "ok"
    },
    {
      "id": "swob:1096439",
      "source": "swob",
      "name": "Prince George",
      "lat": 53.884,
      "lon": -122.678,
      "elevation_m": 690.7,
      "obs_time": "2026-07-23T03:00:00.000Z",
      "wind_dir_deg": 227,
      "wind_speed_kmh": 15,
      "wind_gust_kmh": null,
      "wind_speed_kn": 8,
      "wind_gust_kn": null,
      "stale": false,
      "quality": "ok"
    },
    {
      "id": "swob:1077498",
      "source": "swob",
      "name": "Smithers",
      "lat": 54.8253,
      "lon": -127.183,
      "elevation_m": 523,
      "obs_time": "2026-07-23T03:00:00.000Z",
      "wind_dir_deg": 349,
      "wind_speed_kmh": 16,
      "wind_gust_kmh": null,
      "wind_speed_kn": 8.7,
      "wind_gust_kn": null,
      "stale": false,
      "quality": "ok"
    },
    {
      "id": "swob:1066482",
      "source": "swob",
      "name": "Prince Rupert",
      "lat": 54.2859,
      "lon": -130.445,
      "elevation_m": 35.4,
      "obs_time": "2026-07-23T03:00:00.000Z",
      "wind_dir_deg": 241,
      "wind_speed_kmh": 8,
      "wind_gust_kmh": null,
      "wind_speed_kn": 4.1,
      "wind_gust_kn": null,
      "stale": false,
      "quality": "ok"
    },
    {
      "id": "swob:1060815",
      "source": "swob",
      "name": "Bella Bella Campbell Island",
      "lat": 52.1851,
      "lon": -128.157,
      "elevation_m": 43,
      "obs_time": "2026-07-23T03:00:00.000Z",
      "wind_dir_deg": 28,
      "wind_speed_kmh": 5,
      "wind_gust_kmh": null,
      "wind_speed_kn": 2.9,
      "wind_gust_kn": null,
      "stale": false,
      "quality": "ok"
    },
    {
      "id": "swob:1012710",
      "source": "swob",
      "name": "ESQUIMALT HARBOUR",
      "lat": 48.431972,
      "lon": -123.439333,
      "elevation_m": 4.7,
      "obs_time": "2026-07-23T03:00:00.000Z",
      "wind_dir_deg": 175,
      "wind_speed_kmh": 4,
      "wind_gust_kmh": 6,
      "wind_speed_kn": 2.4,
      "wind_gust_kn": 3.2,
      "stale": false,
      "quality": "ok"
    },
    {
      "id": "swob:1063496",
      "source": "swob",
      "name": "HOLLAND ROCK",
      "lat": 54.1723,
      "lon": -130.361,
      "elevation_m": 7,
      "obs_time": "2026-07-23T03:00:00.000Z",
      "wind_dir_deg": 299,
      "wind_speed_kmh": 19,
      "wind_gust_kmh": 24,
      "wind_speed_kn": 10.4,
      "wind_gust_kn": 12.9,
      "stale": false,
      "quality": "ok"
    },
    {
      "id": "swob:1098941",
      "source": "swob",
      "name": "Williams Lake",
      "lat": 52.1834,
      "lon": -122.054,
      "elevation_m": 939.7,
      "obs_time": "2026-07-23T03:00:00.000Z",
      "wind_dir_deg": 47,
      "wind_speed_kmh": 9,
      "wind_gust_kmh": null,
      "wind_speed_kn": 4.9,
      "wind_gust_kn": null,
      "stale": false,
      "quality": "ok"
    },
    {
      "id": "swob:1085836",
      "source": "swob",
      "name": "OOTSA LAKE SKINS LAKE",
      "lat": 53.771997,
      "lon": -125.996842,
      "elevation_m": 860.276,
      "obs_time": "2026-07-23T03:00:00.000Z",
      "wind_dir_deg": 253,
      "wind_speed_kmh": 20,
      "wind_gust_kmh": 22,
      "wind_speed_kn": 10.8,
      "wind_gust_kn": 12.1,
      "stale": false,
      "quality": "ok"
    },
    {
      "id": "swob:1088015",
      "source": "swob",
      "name": "TATLAYOKO LAKE RCS",
      "lat": 51.674525,
      "lon": -124.40309,
      "elevation_m": 877,
      "obs_time": "2026-07-23T03:00:00.000Z",
      "wind_dir_deg": 140,
      "wind_speed_kmh": 10,
      "wind_gust_kmh": 18,
      "wind_speed_kn": 5.6,
      "wind_gust_kn": 9.4,
      "stale": false,
      "quality": "ok"
    },
    {
      "id": "swob:1021830",
      "source": "swob",
      "name": "Comox",
      "lat": 49.71,
      "lon": -124.89,
      "elevation_m": 26,
      "obs_time": "2026-07-23T03:00:00.000Z",
      "wind_dir_deg": 70,
      "wind_speed_kmh": 4,
      "wind_gust_kmh": null,
      "wind_speed_kn": 1.9,
      "wind_gust_kn": null,
      "stale": false,
      "quality": "ok"
    },
    {
      "id": "ndbc:46146",
      "source": "ndbc",
      "name": "Halibut Bank",
      "lat": 49.34,
      "lon": -123.73,
      "elevation_m": 0,
      "obs_time": "2026-07-23T02:00:00Z",
      "wind_dir_deg": 310,
      "wind_speed_kmh": 4,
      "wind_gust_kmh": 4,
      "wind_speed_kn": 1.9,
      "wind_gust_kn": 1.9,
      "stale": true,
      "quality": "ok"
    },
    {
      "id": "ndbc:46131",
      "source": "ndbc",
      "name": "Sentry Shoal",
      "lat": 49.91,
      "lon": -125,
      "elevation_m": 0,
      "obs_time": "2026-07-23T02:00:00Z",
      "wind_dir_deg": 200,
      "wind_speed_kmh": 7,
      "wind_gust_kmh": 7,
      "wind_speed_kn": 3.9,
      "wind_gust_kn": 3.9,
      "stale": true,
      "quality": "ok"
    },
    {
      "id": "ndbc:46206",
      "source": "ndbc",
      "name": "La Perouse Bank",
      "lat": 48.84,
      "lon": -125.99,
      "elevation_m": 0,
      "obs_time": "2026-07-23T03:00:00Z",
      "wind_dir_deg": 310,
      "wind_speed_kmh": 11,
      "wind_gust_kmh": 11,
      "wind_speed_kn": 5.8,
      "wind_gust_kn": 5.8,
      "stale": false,
      "quality": "ok"
    },
    {
      "id": "ndbc:46132",
      "source": "ndbc",
      "name": "South Brooks",
      "lat": 49.74,
      "lon": -127.93,
      "elevation_m": 0,
      "obs_time": "2026-07-23T02:00:00Z",
      "wind_dir_deg": 330,
      "wind_speed_kmh": 40,
      "wind_gust_kmh": 47,
      "wind_speed_kn": 21.4,
      "wind_gust_kn": 25.3,
      "stale": true,
      "quality": "ok"
    },
    {
      "id": "ndbc:46204",
      "source": "ndbc",
      "name": "West Sea Otter",
      "lat": 51.38,
      "lon": -128.77,
      "elevation_m": 0,
      "obs_time": "2026-07-23T02:00:00Z",
      "wind_dir_deg": 320,
      "wind_speed_kmh": 32,
      "wind_gust_kmh": 40,
      "wind_speed_kn": 17.5,
      "wind_gust_kn": 21.4,
      "stale": true,
      "quality": "ok"
    },
    {
      "id": "ndbc:46181",
      "source": "ndbc",
      "name": "Nanakwa Shoal",
      "lat": 53.82,
      "lon": -128.83,
      "elevation_m": 0,
      "obs_time": "2026-07-23T03:00:00Z",
      "wind_dir_deg": 190,
      "wind_speed_kmh": 25,
      "wind_gust_kmh": 29,
      "wind_speed_kn": 13.6,
      "wind_gust_kn": 15.6,
      "stale": false,
      "quality": "ok"
    }
  ]
}