{
  "generated_at": "2026-07-18T12:46:28.627Z",
  "sources": [
    "msc-geomet-swob-realtime",
    "noaa-ndbc"
  ],
  "station_count": 6,
  "stations": [
    {
      "id": "ndbc:46146",
      "source": "ndbc",
      "name": "Halibut Bank",
      "lat": 49.34,
      "lon": -123.73,
      "elevation_m": 0,
      "obs_time": "2026-07-18T12:00:00Z",
      "wind_dir_deg": 20,
      "wind_speed_kmh": 11,
      "wind_gust_kmh": 14,
      "wind_speed_kn": 5.8,
      "wind_gust_kn": 7.8,
      "stale": false,
      "quality": "ok"
    },
    {
      "id": "ndbc:46131",
      "source": "ndbc",
      "name": "Sentry Shoal",
      "lat": 49.91,
      "lon": -125,
      "elevation_m": 0,
      "obs_time": "2026-07-18T12:00:00Z",
      "wind_dir_deg": 280,
      "wind_speed_kmh": 7,
      "wind_gust_kmh": 7,
      "wind_speed_kn": 3.9,
      "wind_gust_kn": 3.9,
      "stale": false,
      "quality": "ok"
    },
    {
      "id": "ndbc:46206",
      "source": "ndbc",
      "name": "La Perouse Bank",
      "lat": 48.84,
      "lon": -125.99,
      "elevation_m": 0,
      "obs_time": "2026-07-18T12:00:00Z",
      "wind_dir_deg": 300,
      "wind_speed_kmh": 7,
      "wind_gust_kmh": 7,
      "wind_speed_kn": 3.9,
      "wind_gust_kn": 3.9,
      "stale": false,
      "quality": "ok"
    },
    {
      "id": "ndbc:46132",
      "source": "ndbc",
      "name": "South Brooks",
      "lat": 49.74,
      "lon": -127.93,
      "elevation_m": 0,
      "obs_time": "2026-07-18T12:00:00Z",
      "wind_dir_deg": 320,
      "wind_speed_kmh": 11,
      "wind_gust_kmh": 14,
      "wind_speed_kn": 5.8,
      "wind_gust_kn": 7.8,
      "stale": false,
      "quality": "ok"
    },
    {
      "id": "ndbc:46204",
      "source": "ndbc",
      "name": "West Sea Otter",
      "lat": 51.38,
      "lon": -128.77,
      "elevation_m": 0,
      "obs_time": "2026-07-18T12:00:00Z",
      "wind_dir_deg": 250,
      "wind_speed_kmh": 14,
      "wind_gust_kmh": 18,
      "wind_speed_kn": 7.8,
      "wind_gust_kn": 9.7,
      "stale": false,
      "quality": "ok"
    },
    {
      "id": "ndbc:46181",
      "source": "ndbc",
      "name": "Nanakwa Shoal",
      "lat": 53.82,
      "lon": -128.83,
      "elevation_m": 0,
      "obs_time": "2026-07-18T12:00:00Z",
      "wind_dir_deg": 230,
      "wind_speed_kmh": 4,
      "wind_gust_kmh": 7,
      "wind_speed_kn": 1.9,
      "wind_gust_kn": 3.9,
      "stale": false,
      "quality": "ok"
    }
  ]
}