{
  "generated_at": "2026-07-14T16:00:52.957Z",
  "sources": [
    "msc-geomet-swob-realtime",
    "noaa-ndbc"
  ],
  "station_count": 39,
  "stations": [
    {
      "id": "swob:1100032",
      "source": "swob",
      "name": "Abbotsford",
      "lat": 49.0253,
      "lon": -122.36,
      "elevation_m": 59.1,
      "obs_time": "2026-07-14T16:00:00.000Z",
      "wind_dir_deg": 172,
      "wind_speed_kmh": 8,
      "wind_gust_kmh": null,
      "wind_speed_kn": 4.3,
      "wind_gust_kn": null,
      "stale": false,
      "quality": "ok"
    },
    {
      "id": "swob:1100909",
      "source": "swob",
      "name": "Vancouver Boundary Bay",
      "lat": 49.0733,
      "lon": -123.008,
      "elevation_m": 1.8,
      "obs_time": "2026-07-14T16:00:00.000Z",
      "wind_dir_deg": 133,
      "wind_speed_kmh": 5,
      "wind_gust_kmh": null,
      "wind_speed_kn": 2.7,
      "wind_gust_kn": null,
      "stale": false,
      "quality": "ok"
    },
    {
      "id": "swob:1104570",
      "source": "swob",
      "name": "Langley Regional",
      "lat": 49.1008,
      "lon": -122.631,
      "elevation_m": 10.4,
      "obs_time": "2026-07-14T16:00:00.000Z",
      "wind_dir_deg": 188,
      "wind_speed_kmh": 5,
      "wind_gust_kmh": null,
      "wind_speed_kn": 2.9,
      "wind_gust_kn": null,
      "stale": false,
      "quality": "ok"
    },
    {
      "id": "swob:1054929",
      "source": "swob",
      "name": "Masset",
      "lat": 54.0271,
      "lon": -132.125,
      "elevation_m": 5.8,
      "obs_time": "2026-07-14T16:00:00.000Z",
      "wind_dir_deg": 328,
      "wind_speed_kmh": 23,
      "wind_gust_kmh": 32,
      "wind_speed_kn": 12.4,
      "wind_gust_kn": 17.3,
      "stale": false,
      "quality": "ok"
    },
    {
      "id": "swob:110Q44V",
      "source": "swob",
      "name": "Vancouver Harbour",
      "lat": 49.2869,
      "lon": -123.106,
      "elevation_m": 0,
      "obs_time": "2026-07-14T16:00:00.000Z",
      "wind_dir_deg": 101,
      "wind_speed_kmh": 7,
      "wind_gust_kmh": null,
      "wind_speed_kn": 3.5,
      "wind_gust_kn": null,
      "stale": false,
      "quality": "ok"
    },
    {
      "id": "swob:1096454",
      "source": "swob",
      "name": "PRINCE GEORGE MASSEY AUTO",
      "lat": 53.90001,
      "lon": -122.790803,
      "elevation_m": 602.163,
      "obs_time": "2026-07-14T16:00:00.000Z",
      "wind_dir_deg": 338,
      "wind_speed_kmh": 6,
      "wind_gust_kmh": 13,
      "wind_speed_kn": 3.1,
      "wind_gust_kn": 6.8,
      "stale": false,
      "quality": "ok"
    },
    {
      "id": "swob:1108910",
      "source": "swob",
      "name": "WHITE ROCK",
      "lat": 49.0181,
      "lon": -122.7839,
      "elevation_m": 13,
      "obs_time": "2026-07-14T16:00:00.000Z",
      "wind_dir_deg": 156,
      "wind_speed_kmh": 4,
      "wind_gust_kmh": 7,
      "wind_speed_kn": 2.4,
      "wind_gust_kn": 3.9,
      "stale": false,
      "quality": "ok"
    },
    {
      "id": "swob:1016943",
      "source": "swob",
      "name": "SAANICHTON CFIA",
      "lat": 48.621733,
      "lon": -123.410233,
      "elevation_m": 25.5,
      "obs_time": "2026-07-14T16:00:00.000Z",
      "wind_dir_deg": 84,
      "wind_speed_kmh": 4,
      "wind_gust_kmh": 6,
      "wind_speed_kn": 2,
      "wind_gust_kn": 3.4,
      "stale": false,
      "quality": "ok"
    },
    {
      "id": "swob:1021270",
      "source": "swob",
      "name": "Campbell River",
      "lat": 49.952,
      "lon": -125.273,
      "elevation_m": 108.8,
      "obs_time": "2026-07-14T16:00:00.000Z",
      "wind_dir_deg": 318,
      "wind_speed_kmh": 12,
      "wind_gust_kmh": null,
      "wind_speed_kn": 6.2,
      "wind_gust_kn": null,
      "stale": false,
      "quality": "ok"
    },
    {
      "id": "swob:1018633",
      "source": "swob",
      "name": "Victoria Harbour",
      "lat": 48.4228,
      "lon": -123.387,
      "elevation_m": 0,
      "obs_time": "2026-07-14T16:00:00.000Z",
      "wind_dir_deg": 252,
      "wind_speed_kmh": 3,
      "wind_gust_kmh": null,
      "wind_speed_kn": 1.7,
      "wind_gust_kn": null,
      "stale": false,
      "quality": "ok"
    },
    {
      "id": "swob:1096631",
      "source": "swob",
      "name": "QUESNEL AIRPORT AUTO",
      "lat": 53.026929,
      "lon": -122.506271,
      "elevation_m": 544.397,
      "obs_time": "2026-07-14T16:00:00.000Z",
      "wind_dir_deg": 328,
      "wind_speed_kmh": 15,
      "wind_gust_kmh": 25,
      "wind_speed_kn": 8,
      "wind_gust_kn": 13.3,
      "stale": false,
      "quality": "ok"
    },
    {
      "id": "swob:1036B06",
      "source": "swob",
      "name": "PORT ALBERNI AIRPORT (AUT)",
      "lat": 49.316698,
      "lon": -124.926912,
      "elevation_m": 78.3,
      "obs_time": "2026-07-14T16:00:00.000Z",
      "wind_dir_deg": 64,
      "wind_speed_kmh": 1,
      "wind_gust_kmh": 5,
      "wind_speed_kn": 0.6,
      "wind_gust_kn": 2.5,
      "stale": false,
      "quality": "ok"
    },
    {
      "id": "swob:1106178",
      "source": "swob",
      "name": "PITT MEADOWS CS",
      "lat": 49.208307,
      "lon": -122.690076,
      "elevation_m": 6.3,
      "obs_time": "2026-07-14T16:00:00.000Z",
      "wind_dir_deg": 154,
      "wind_speed_kmh": 5,
      "wind_gust_kmh": 10,
      "wind_speed_kn": 2.6,
      "wind_gust_kn": 5.2,
      "stale": false,
      "quality": "ok"
    },
    {
      "id": "swob:1106200",
      "source": "swob",
      "name": "POINT ATKINSON",
      "lat": 49.330352,
      "lon": -123.264704,
      "elevation_m": 15,
      "obs_time": "2026-07-14T16:00:00.000Z",
      "wind_dir_deg": 84,
      "wind_speed_kmh": 5,
      "wind_gust_kmh": 7,
      "wind_speed_kn": 2.9,
      "wind_gust_kn": 3.8,
      "stale": false,
      "quality": "ok"
    },
    {
      "id": "swob:1018598",
      "source": "swob",
      "name": "VICTORIA UNIVERSITY CS",
      "lat": 48.45692,
      "lon": -123.304635,
      "elevation_m": 61.1,
      "obs_time": "2026-07-14T16:00:00.000Z",
      "wind_dir_deg": 88,
      "wind_speed_kmh": 3,
      "wind_gust_kmh": 6,
      "wind_speed_kn": 1.7,
      "wind_gust_kn": 3.2,
      "stale": false,
      "quality": "ok"
    },
    {
      "id": "swob:1102415",
      "source": "swob",
      "name": "DELTA BURNS BOG",
      "lat": 49.125992,
      "lon": -123.002436,
      "elevation_m": 4.6,
      "obs_time": "2026-07-14T16:00:00.000Z",
      "wind_dir_deg": 1,
      "wind_speed_kmh": 1,
      "wind_gust_kmh": 3,
      "wind_speed_kn": 0.4,
      "wind_gust_kn": 1.7,
      "stale": false,
      "quality": "ok"
    },
    {
      "id": "swob:1057051",
      "source": "swob",
      "name": "SANDSPIT AIRPORT AUTO",
      "lat": 53.249444,
      "lon": -131.813138,
      "elevation_m": 10.9,
      "obs_time": "2026-07-14T16:00:00.000Z",
      "wind_dir_deg": 323,
      "wind_speed_kmh": 15,
      "wind_gust_kmh": 29,
      "wind_speed_kn": 7.9,
      "wind_gust_kn": 15.4,
      "stale": false,
      "quality": "ok"
    },
    {
      "id": "swob:1086558",
      "source": "swob",
      "name": "PUNTZI MOUNTAIN AIRPORT (AUT)",
      "lat": 52.108869,
      "lon": -124.152797,
      "elevation_m": 912.59,
      "obs_time": "2026-07-14T16:00:00.000Z",
      "wind_dir_deg": 286,
      "wind_speed_kmh": 2,
      "wind_gust_kmh": 5,
      "wind_speed_kn": 1,
      "wind_gust_kn": 2.6,
      "stale": false,
      "quality": "ok"
    },
    {
      "id": "swob:10476F0",
      "source": "swob",
      "name": "SQUAMISH AIRPORT",
      "lat": 49.78319,
      "lon": -123.161232,
      "elevation_m": 56.6,
      "obs_time": "2026-07-14T16:00:00.000Z",
      "wind_dir_deg": 207,
      "wind_speed_kmh": 2,
      "wind_gust_kmh": 8,
      "wind_speed_kn": 1.3,
      "wind_gust_kn": 4.5,
      "stale": false,
      "quality": "ok"
    },
    {
      "id": "swob:1015630",
      "source": "swob",
      "name": "NORTH COWICHAN",
      "lat": 48.824209,
      "lon": -123.718917,
      "elevation_m": 46.8,
      "obs_time": "2026-07-14T16:00:00.000Z",
      "wind_dir_deg": 228,
      "wind_speed_kmh": 1,
      "wind_gust_kmh": 6,
      "wind_speed_kn": 0.8,
      "wind_gust_kn": 3.1,
      "stale": false,
      "quality": "ok"
    },
    {
      "id": "swob:1060844",
      "source": "swob",
      "name": "BELLA COOLA AIRPORT",
      "lat": 52.388507,
      "lon": -126.586783,
      "elevation_m": 38.2,
      "obs_time": "2026-07-14T15:59:00.000Z",
      "wind_dir_deg": 45,
      "wind_speed_kmh": 6,
      "wind_gust_kmh": 10,
      "wind_speed_kn": 3.1,
      "wind_gust_kn": 5.6,
      "stale": false,
      "quality": "ok"
    },
    {
      "id": "swob:1108291",
      "source": "swob",
      "name": "TSAWWASSEN FERRY AUTO",
      "lat": 49.0039,
      "lon": -123.1333,
      "elevation_m": 8.3,
      "obs_time": "2026-07-14T15:59:00.000Z",
      "wind_dir_deg": 5,
      "wind_speed_kmh": 0,
      "wind_gust_kmh": 0,
      "wind_speed_kn": 0,
      "wind_gust_kn": 0,
      "stale": false,
      "quality": "ok"
    },
    {
      "id": "swob:1096453",
      "source": "swob",
      "name": "PRINCE GEORGE AIRPORT AUTO",
      "lat": 53.888996,
      "lon": -122.67208,
      "elevation_m": 680.44,
      "obs_time": "2026-07-14T15:59:00.000Z",
      "wind_dir_deg": 354,
      "wind_speed_kmh": 19,
      "wind_gust_kmh": 27,
      "wind_speed_kn": 10.5,
      "wind_gust_kn": 14.4,
      "stale": false,
      "quality": "ok"
    },
    {
      "id": "swob:1047172",
      "source": "swob",
      "name": "SECHELT AUT",
      "lat": 49.457998,
      "lon": -123.715224,
      "elevation_m": 87.151,
      "obs_time": "2026-07-14T15:59:00.000Z",
      "wind_dir_deg": 300,
      "wind_speed_kmh": 2,
      "wind_gust_kmh": 4,
      "wind_speed_kn": 1,
      "wind_gust_kn": 2.3,
      "stale": false,
      "quality": "ok"
    },
    {
      "id": "swob:1091174",
      "source": "swob",
      "name": "BURNS LAKE DECKER LAKE",
      "lat": 54.383092,
      "lon": -125.95879,
      "elevation_m": 715.191,
      "obs_time": "2026-07-14T15:59:00.000Z",
      "wind_dir_deg": 327,
      "wind_speed_kmh": 8,
      "wind_gust_kmh": 11,
      "wind_speed_kn": 4.5,
      "wind_gust_kn": 5.9,
      "stale": false,
      "quality": "ok"
    },
    {
      "id": "swob:1086081",
      "source": "swob",
      "name": "PEMBERTON AIRPORT (WINDS)",
      "lat": 50.30251,
      "lon": -122.742199,
      "elevation_m": 205,
      "obs_time": "2026-07-14T15:59:00.000Z",
      "wind_dir_deg": 288,
      "wind_speed_kmh": 2,
      "wind_gust_kmh": 4,
      "wind_speed_kn": 1,
      "wind_gust_kn": 2.2,
      "stale": false,
      "quality": "ok"
    },
    {
      "id": "swob:1026562",
      "source": "swob",
      "name": "QUALICUM BEACH AIRPORT",
      "lat": 49.337222,
      "lon": -124.393889,
      "elevation_m": 60.2,
      "obs_time": "2026-07-14T15:59:00.000Z",
      "wind_dir_deg": 295,
      "wind_speed_kmh": 9,
      "wind_gust_kmh": 14,
      "wind_speed_kn": 4.8,
      "wind_gust_kn": 7.3,
      "stale": false,
      "quality": "ok"
    },
    {
      "id": "swob:1016640",
      "source": "swob",
      "name": "RACE ROCKS",
      "lat": 48.297992,
      "lon": -123.531394,
      "elevation_m": 32.9,
      "obs_time": "2026-07-14T15:59:00.000Z",
      "wind_dir_deg": 276,
      "wind_speed_kmh": 11,
      "wind_gust_kmh": 15,
      "wind_speed_kn": 5.9,
      "wind_gust_kn": 8.2,
      "stale": false,
      "quality": "ok"
    },
    {
      "id": "swob:1064324",
      "source": "swob",
      "name": "KITIMAT FOREST AVE",
      "lat": 54.056434,
      "lon": -128.604077,
      "elevation_m": 106.354,
      "obs_time": "2026-07-14T15:59:00.000Z",
      "wind_dir_deg": 347,
      "wind_speed_kmh": 3,
      "wind_gust_kmh": 12,
      "wind_speed_kn": 1.6,
      "wind_gust_kn": 6.4,
      "stale": false,
      "quality": "ok"
    },
    {
      "id": "swob:1077501",
      "source": "swob",
      "name": "SMITHERS AIRPORT AUTO",
      "lat": 54.824275,
      "lon": -127.189264,
      "elevation_m": 520.197,
      "obs_time": "2026-07-14T15:59:00.000Z",
      "wind_dir_deg": 111,
      "wind_speed_kmh": 5,
      "wind_gust_kmh": 8,
      "wind_speed_kn": 2.7,
      "wind_gust_kn": 4.1,
      "stale": false,
      "quality": "ok"
    },
    {
      "id": "swob:1018611",
      "source": "swob",
      "name": "VICTORIA GONZALES CS",
      "lat": 48.413302,
      "lon": -123.324775,
      "elevation_m": 65.339,
      "obs_time": "2026-07-14T15:59:00.000Z",
      "wind_dir_deg": 156,
      "wind_speed_kmh": 6,
      "wind_gust_kmh": 10,
      "wind_speed_kn": 3.5,
      "wind_gust_kn": 5.2,
      "stale": false,
      "quality": "ok"
    },
    {
      "id": "swob:1108824",
      "source": "swob",
      "name": "WEST VANCOUVER AUT",
      "lat": 49.347059,
      "lon": -123.193392,
      "elevation_m": 170.885,
      "obs_time": "2026-07-14T15:59:00.000Z",
      "wind_dir_deg": 236,
      "wind_speed_kmh": 1,
      "wind_gust_kmh": 5,
      "wind_speed_kn": 0.8,
      "wind_gust_kn": 2.9,
      "stale": false,
      "quality": "ok"
    },
    {
      "id": "swob:1012710",
      "source": "swob",
      "name": "ESQUIMALT HARBOUR",
      "lat": 48.431972,
      "lon": -123.439333,
      "elevation_m": 4.7,
      "obs_time": "2026-07-14T15:45:00.000Z",
      "wind_dir_deg": 172,
      "wind_speed_kmh": 7,
      "wind_gust_kmh": 8,
      "wind_speed_kn": 3.5,
      "wind_gust_kn": 4.5,
      "stale": false,
      "quality": "ok"
    },
    {
      "id": "ndbc:46146",
      "source": "ndbc",
      "name": "Halibut Bank",
      "lat": 49.34,
      "lon": -123.73,
      "elevation_m": 0,
      "obs_time": "2026-07-14T15:00:00Z",
      "wind_dir_deg": 270,
      "wind_speed_kmh": 22,
      "wind_gust_kmh": 25,
      "wind_speed_kn": 11.7,
      "wind_gust_kn": 13.6,
      "stale": true,
      "quality": "ok"
    },
    {
      "id": "ndbc:46131",
      "source": "ndbc",
      "name": "Sentry Shoal",
      "lat": 49.91,
      "lon": -125,
      "elevation_m": 0,
      "obs_time": "2026-07-14T15:00:00Z",
      "wind_dir_deg": 330,
      "wind_speed_kmh": 18,
      "wind_gust_kmh": 22,
      "wind_speed_kn": 9.7,
      "wind_gust_kn": 11.7,
      "stale": true,
      "quality": "ok"
    },
    {
      "id": "ndbc:46206",
      "source": "ndbc",
      "name": "La Perouse Bank",
      "lat": 48.84,
      "lon": -125.99,
      "elevation_m": 0,
      "obs_time": "2026-07-14T15:00:00Z",
      "wind_dir_deg": 300,
      "wind_speed_kmh": 4,
      "wind_gust_kmh": 7,
      "wind_speed_kn": 1.9,
      "wind_gust_kn": 3.9,
      "stale": true,
      "quality": "ok"
    },
    {
      "id": "ndbc:46132",
      "source": "ndbc",
      "name": "South Brooks",
      "lat": 49.74,
      "lon": -127.93,
      "elevation_m": 0,
      "obs_time": "2026-07-14T15:00:00Z",
      "wind_dir_deg": 330,
      "wind_speed_kmh": 25,
      "wind_gust_kmh": 29,
      "wind_speed_kn": 13.6,
      "wind_gust_kn": 15.6,
      "stale": true,
      "quality": "ok"
    },
    {
      "id": "ndbc:46204",
      "source": "ndbc",
      "name": "West Sea Otter",
      "lat": 51.38,
      "lon": -128.77,
      "elevation_m": 0,
      "obs_time": "2026-07-14T15:00:00Z",
      "wind_dir_deg": 320,
      "wind_speed_kmh": 25,
      "wind_gust_kmh": 29,
      "wind_speed_kn": 13.6,
      "wind_gust_kn": 15.6,
      "stale": true,
      "quality": "ok"
    },
    {
      "id": "ndbc:46181",
      "source": "ndbc",
      "name": "Nanakwa Shoal",
      "lat": 53.82,
      "lon": -128.83,
      "elevation_m": 0,
      "obs_time": "2026-07-14T15:00:00Z",
      "wind_dir_deg": 30,
      "wind_speed_kmh": 32,
      "wind_gust_kmh": 36,
      "wind_speed_kn": 17.5,
      "wind_gust_kn": 19.4,
      "stale": true,
      "quality": "ok"
    }
  ]
}